[{'twid': 'hideoutchicago', 'active': true, 'city': 'Chicago', 'state': 'IL', 'citystate': 'Chicago, IL', 'zip': '60642', 'lat': '41.913793', 'lng': '-87.662522','line1':'1354 W Wabansia', 'metro': 'Chicago, IL', 'phone':'773-227-4433', 'url':'http://www.hideoutchicago.com/','image':'https://media-cdn.tripadvisor.com/media/photo-s/07/da/d8/f9/the-hideout.jpg','name' : 'The Hideout', 'tags': ['#music','#nightlife']},
{'twid': 'theemptybottle', 'active': true, 'city': 'Chicago', 'state': 'IL', 'citystate': 'Chicago, IL', 'zip': '60622', 'lat': '41.900463', 'lng': '-87.686640','line1':'1035 N Western Ave', 'metro': 'Chicago, IL', 'phone':'773-276-3600', 'url':'http://emptybottle.com/','image':'https://media.timeout.com/images/100894119/image.jpg','name' : 'The Empty Bottle', 'tags': ['#music','#nightlife']},
{'twid': 'subtchicago', 'active': true, 'city': 'Chicago', 'state': 'IL', 'citystate': 'Chicago, IL', 'zip': '60647', 'lat': '41.910378', 'lng': '-87.677984','line1':'2011 W North Ave', 'metro': 'Chicago, IL', 'phone':'773-278-6600', 'url':'http://subt.net/','image':'http://www.subt.net/files/2016/02/C-David-Brendan-Hall-Photography.jpg','name' : 'Subterranean', 'tags': ['#music','#nightlife']},
{'twid': 'Schubas', 'active': true, 'city': 'Chicago', 'state': 'IL', 'citystate': 'Chicago, IL', 'zip': '60657', 'lat': '41.939683', 'lng': '-87.663648','line1':'3159 N Southport Ave', 'metro': 'Chicago, IL', 'phone':'773-525-2508', 'url':'http://www.lh-st.com/','image':'http://www.lh-st.com/assets/root/images/music/SchubasHistory.jpg','name' : 'Schubas', 'tags': ['#music','#nightlife']},
{'twid': 'LincolnHall', 'active': true, 'city': 'Chicago', 'state': 'IL', 'citystate': 'Chicago, IL', 'zip': '60614', 'lat': '41.925978', 'lng': '-87.649757','line1':'2424 N Lincoln Ave', 'metro': 'Chicago, IL', 'phone':'773-525-2501', 'url':'http://www.lh-st.com/','image':'http://www.lh-st.com/assets/root/images/music/LincolnHall_History.jpg','name' : 'Lincoln Hall', 'tags': ['#music','#nightlife']},
{'twid': 'MetroChicago', 'active': true, 'city': 'Chicago', 'state': 'IL', 'citystate': 'Chicago, IL', 'zip': '60613', 'lat': '41.949800', 'lng': '-87.658795','line1':'3730 N Clark St, Chicago', 'metro': 'Chicago, IL', 'phone':'773-549-4140', 'url':'http://metrochicago.com','image':'https://upload.wikimedia.org/wikipedia/commons/thumb/0/00/TheMetroChicagoJI1.jpg/1200px-TheMetroChicagoJI1.jpg','name' : 'Metro', 'tags': ['#music','#nightlife']},
{'twid': 'ElboRoomLive', 'active': true, 'city': 'Chicago', 'state': 'IL', 'citystate': 'Chicago, IL', 'zip': '60657', 'lat': '41.934201', 'lng': '-87.660715','line1':'2871 N Lincoln Ave, Chicago', 'metro': 'Chicago, IL', 'phone':'773-549-5549', 'url':'http://elboroomlive.com','image':'http://www.elboroomlive.com/files/2016/06/venue.jpg','name' : 'Elbo Room', 'tags': ['#music','#nightlife']},
{'twid': 'reggieslive', 'active': true, 'city': 'Chicago', 'state': 'IL', 'citystate': 'Chicago, IL', 'zip': '60616', 'lat': '41.853937', 'lng': '-87.626761','line1':'2105 S State St, Chicago', 'metro': 'Chicago, IL', 'phone':'312-949-0120', 'url':'http://reggieslive.com','image':'http://www.reggieslive.com/wp-content/uploads/Reggies-Chicago-Photo-1B-353x231.jpg','name' : 'Reggies', 'tags': ['#music','#nightlife']}
]